[
  {
    "name": "Joan Presley",
    "level": "county",
    "office": "County Commissioner",
    "district": "",
    "town": "McMinnville",
    "state": "Tennessee",
    "photo": "",
    "website": "",
    "cycle": "2026",
    "lat": 35.683404,
    "lng": -85.7699816
  },
  {
    "name": "Dustin Vigneault",
    "level": "state",
    "office": "State Representative",
    "district": "",
    "town": "Haverhill",
    "state": "New Hampshire",
    "photo": "https://s3.amazonaws.com/ballotpedia-api4/files/thumbs/200/300/DustinVigneault2024.jpg",
    "website": "",
    "cycle": "2026",
    "lat": 44.0342717,
    "lng": -72.0634434
  },
  {
    "name": "Charles Tilburg",
    "level": "state",
    "office": "State Representative",
    "district": "",
    "town": "Buxton",
    "state": "Maine",
    "photo": "https://images.squarespace-cdn.com/content/v1/69336a297adefc01edd6325f/f9be4079-c292-4e52-9aea-89e74266692e/_B5_5624+%281%29.jpg",
    "website": "https://www.charlestilburg.com/",
    "cycle": "2026",
    "lat": 43.612404,
    "lng": -70.540878
  },
  {
    "name": "Charly Ray",
    "level": "state",
    "office": "State Senate",
    "district": "",
    "town": "Bayview Township",
    "state": "Wisconsin",
    "photo": "https://images.squarespace-cdn.com/content/v1/690bb6530aefb420928b5119/d49f138c-6e38-4512-8f22-3e2b8249b5b2/Charly-Ray-Logobg.png",
    "website": "https://www.rayforwi.com/",
    "cycle": "2026",
    "lat": 46.4710241,
    "lng": -91.1983175
  },
  {
    "name": "Kirstan Watson",
    "level": "state",
    "office": "State Representative",
    "district": "",
    "town": "Arundel",
    "state": "Maine",
    "photo": "https://vote-usa.org/Image.aspx?Id=MEWatsonKirstanL&Col=Profile300&Def=Profile300",
    "website": "",
    "cycle": "2026",
    "lat": 43.3825857,
    "lng": -70.4778292
  },
  {
    "name": "Ali Simpson",
    "level": "state",
    "office": "State Representative",
    "district": "",
    "town": "Ten Mile",
    "state": "Tennessee",
    "photo": "https://images.squarespace-cdn.com/content/v1/68cc659f41895b54f0820899/ea76691e-95d8-400e-b752-ba30a2a3b139/AliSimpson.jpeg",
    "website": "https://www.simpson4tn32.com/",
    "cycle": "2026",
    "lat": 35.6667394,
    "lng": -84.6646604
  },
  {
    "name": "Allen Davis",
    "level": "state",
    "office": "State Representative",
    "district": "",
    "town": "Dublin",
    "state": "New Hampshire",
    "photo": "",
    "website": "",
    "cycle": "2026",
    "lat": 42.9059403,
    "lng": -72.061978
  },
  {
    "name": "Madison Cook",
    "level": "state",
    "office": "State Representative",
    "district": "",
    "town": "Belfast",
    "state": "Maine",
    "photo": "https://images.squarespace-cdn.com/content/v1/6979096572d66041dee9282b/9ffa7dfa-163c-4b74-9206-7d3df3792506/IMG_5200.jpeg",
    "website": "https://www.madisonformaine.com/",
    "cycle": "2026",
    "lat": 44.4261759,
    "lng": -69.0065207
  },
  {
    "name": "Reggie Spaulding",
    "level": "state",
    "office": "State Representative",
    "district": "",
    "town": "Missoula",
    "state": "Montana",
    "photo": "https://images.squarespace-cdn.com/content/v1/68b4e9b1dcf6053c8e1ced45/48c104aa-048c-415a-b4f6-af719c45c507/L_shade+copy.png",
    "website": "https://reggiespauldingformt.org/",
    "cycle": "2026",
    "lat": 46.8701049,
    "lng": -113.995267
  },
  {
    "name": "Hannah Cole",
    "level": "state",
    "office": "State Representative",
    "district": "",
    "town": "Teresita",
    "state": "Oklahoma",
    "photo": "",
    "website": "",
    "cycle": "2026",
    "lat": 36.1095351,
    "lng": -94.9927351
  },
  {
    "name": "Gaston Bathalon",
    "level": "state",
    "office": "State Senate",
    "district": "",
    "town": "Troy",
    "state": "Vermont",
    "photo": "https://images.squarespace-cdn.com/content/v1/68f4fb78c0b14a57ff5c1aba/01e61fb3-5b5f-4765-b493-e79df0ba436c/gaston+bathalon+%28Email+Header%29+%281%29.png",
    "website": "https://www.bathalonforvermont.com/",
    "cycle": "2026",
    "lat": 44.9037718,
    "lng": -72.4058578
  },
  {
    "name": "Melanie Miller",
    "level": "state",
    "office": "State Representative",
    "district": "",
    "town": "White Plains",
    "state": "Georgia",
    "photo": "https://s3.amazonaws.com/ballotpedia-api4/files/thumbs/200/300/Melanie_Miller_20240808_095048.jpeg",
    "website": "https://www.melaniemillerforga.com/",
    "cycle": "2026",
    "lat": 33.4720779,
    "lng": -83.035429
  },
  {
    "name": "Chris Conroy",
    "level": "state",
    "office": "State Representative",
    "district": "",
    "town": "Weare",
    "state": "New Hampshire",
    "photo": "",
    "website": "",
    "cycle": "2026",
    "lat": 43.094966,
    "lng": -71.73111
  },
  {
    "name": "Azalea Cormier",
    "level": "state",
    "office": "State Representative",
    "district": "",
    "town": "Buckfield",
    "state": "Maine",
    "photo": "",
    "website": "",
    "cycle": "2026",
    "lat": 44.2899492,
    "lng": -70.3653651
  },
  {
    "name": "Brittany Newton",
    "level": "state",
    "office": "State Representative",
    "district": "",
    "town": "Whiteville",
    "state": "North Carolina",
    "photo": "",
    "website": "",
    "cycle": "2026",
    "lat": 34.3217345,
    "lng": -78.703148
  },
  {
    "name": "Iva Markicevic Daley",
    "level": "state",
    "office": "State Representative",
    "district": "",
    "town": "Sandy Hook",
    "state": "Kentucky",
    "photo": "https://www.forwardky.com/content/images/size/w1200/2025/12/IvaDaley_featured.jpg",
    "website": "https://www.ivaforkentucky.com/",
    "cycle": "2026",
    "lat": 38.0864739,
    "lng": -83.1262839
  },
  {
    "name": "Steven Gupton",
    "level": "local",
    "office": "School Board",
    "district": "",
    "town": "Louisburg",
    "state": "North Carolina",
    "photo": "https://www.ednc.org/wp-content/uploads/2020/04/steven-gup.jpeg",
    "website": "https://stevengupton.com/",
    "cycle": "2026",
    "lat": 36.0990393,
    "lng": -78.301106
  },
  {
    "name": "Bobbi Cummiskey",
    "level": "local",
    "office": "City Council",
    "district": "",
    "town": "Bend",
    "state": "Oregon",
    "photo": "",
    "website": "",
    "cycle": "2026",
    "lat": 44.0581728,
    "lng": -121.3153096
  },
  {
    "name": "Derek Hopkins",
    "level": "state",
    "office": "State Representative",
    "district": "District 11",
    "town": "",
    "state": "North Carolina",
    "photo": "",
    "website": "",
    "cycle": "Not sure yet!",
    "lat": 35.595363,
    "lng": -82.5508407
  },
  {
    "name": "Laura Sirot",
    "level": "state",
    "office": "State Senate",
    "district": "District 31",
    "town": "",
    "state": "",
    "photo": "",
    "website": "",
    "cycle": "2026",
    "lat": 40.7980976,
    "lng": -81.9397733
  },
  {
    "name": "Whitney Echenique",
    "level": "state",
    "office": "State Representative",
    "district": "District 2",
    "town": "",
    "state": "",
    "photo": "",
    "website": "",
    "cycle": "2026",
    "lat": 34.7691867,
    "lng": -84.9702475
  },
  {
    "name": "Matthew Townsend",
    "level": "state",
    "office": "State Representative",
    "district": "District 67",
    "town": "",
    "state": "",
    "photo": "",
    "website": "",
    "cycle": "2026",
    "lat": 44.588511,
    "lng": -69.599075
  },
  {
    "name": "Thomas O'Donnell",
    "level": "state",
    "office": "State Representative",
    "district": "District 87",
    "town": "",
    "state": "",
    "photo": "",
    "website": "",
    "cycle": "2026",
    "lat": 40.7301997,
    "lng": -91.9621393
  },
  {
    "name": "Zeppelin Zeerip",
    "level": "state",
    "office": "State Representative",
    "district": "District 4",
    "town": "",
    "state": "",
    "photo": "",
    "website": "",
    "cycle": "2026",
    "lat": 40.7146758,
    "lng": -111.300734
  },
  {
    "name": "Jamie Collins",
    "level": "county",
    "office": "County Commissioner",
    "district": "Deschutes County",
    "town": "",
    "state": "",
    "photo": "",
    "website": "",
    "cycle": "2026",
    "lat": 44.0581728,
    "lng": -121.3153096
  },
  {
    "name": "Barbara Gooby",
    "level": "state",
    "office": "State Senate",
    "district": "District 1",
    "town": "",
    "state": "",
    "photo": "",
    "website": "",
    "cycle": "2026",
    "lat": 32.0790074,
    "lng": -81.0921335
  },
  {
    "name": "Diana Spangler",
    "level": "state",
    "office": "State Representative",
    "district": "District 16",
    "town": "",
    "state": "",
    "photo": "",
    "website": "",
    "cycle": "2026",
    "lat": 33.9237141,
    "lng": -84.8407732
  },
  {
    "name": "Will Rivera",
    "level": "local",
    "office": "City Council",
    "district": "",
    "town": "Oneonta",
    "state": "",
    "photo": "",
    "website": "",
    "cycle": "2025",
    "lat": 42.453492,
    "lng": -75.0629531
  },
  {
    "name": "Kenneth Matthews",
    "level": "state",
    "office": "State Senate",
    "district": "District 4",
    "town": "",
    "state": "",
    "photo": "",
    "website": "",
    "cycle": "2026",
    "lat": 38.4325896,
    "lng": -82.0201368
  },
  {
    "name": "Marta Beck",
    "level": "state",
    "office": "State Representative",
    "district": "District 98",
    "town": "",
    "state": "",
    "photo": "",
    "website": "",
    "cycle": "2026",
    "lat": 39.2495466,
    "lng": -77.9586082
  },
  {
    "name": "Randall Putz",
    "level": "state",
    "office": "State Assembly",
    "district": "District 34",
    "town": "",
    "state": "",
    "photo": "",
    "website": "",
    "cycle": "2026",
    "lat": 34.2440587,
    "lng": -116.91018
  },
  {
    "name": "Bennie Taylor",
    "level": "state",
    "office": "State Representative",
    "district": "District 42",
    "town": "",
    "state": "",
    "photo": "",
    "website": "",
    "cycle": "2026",
    "lat": 36.1623886,
    "lng": -85.4997057
  },
  {
    "name": "Dusty Jones",
    "level": "state",
    "office": "State Representative",
    "district": "District 49",
    "town": "",
    "state": "",
    "photo": "",
    "website": "",
    "cycle": "2026",
    "lat": 33.9984099,
    "lng": -96.7198974
  },
  {
    "name": "Nathan Brewer",
    "level": "state",
    "office": "State Senate",
    "district": "District 8",
    "town": "",
    "state": "",
    "photo": "",
    "website": "",
    "cycle": "2026",
    "lat": 35.4396625,
    "lng": -95.9865145
  },
  {
    "name": "Daniel Horoshak",
    "level": "state",
    "office": "State Representative",
    "district": "District 7B",
    "town": "",
    "state": "",
    "photo": "",
    "website": "",
    "cycle": "2026",
    "lat": 47.462761,
    "lng": -92.538824
  },
  {
    "name": "David Trumble",
    "level": "state",
    "office": "State Senate",
    "district": "District 8",
    "town": "",
    "state": "",
    "photo": "",
    "website": "",
    "cycle": "2026",
    "lat": 43.094966,
    "lng": -71.73111
  },
  {
    "name": "La Rhonda Odom",
    "level": "state",
    "office": "State Representative",
    "district": "District 48",
    "town": "",
    "state": "",
    "photo": "",
    "website": "",
    "cycle": "2026",
    "lat": 33.0576295,
    "lng": -89.5875764
  },
  {
    "name": "Siobhan McIntyre",
    "level": "state",
    "office": "State Representative",
    "district": "District 79",
    "town": "",
    "state": "",
    "photo": "",
    "website": "",
    "cycle": "2026",
    "lat": 37.2397486,
    "lng": -96.9955919
  },
  {
    "name": "John Bartlett",
    "level": "state",
    "office": "State Representative",
    "district": "District 33",
    "town": "",
    "state": "",
    "photo": "",
    "website": "",
    "cycle": "2026",
    "lat": 40.4511541,
    "lng": -85.369972
  },
  {
    "name": "Marc Bourassa",
    "level": "state",
    "office": "State Representative",
    "district": "Grafton District 10",
    "town": "",
    "state": "",
    "photo": "",
    "website": "",
    "cycle": "2026",
    "lat": 43.5912709,
    "lng": -71.7361557
  },
  {
    "name": "Jarvus Turnley",
    "level": "state",
    "office": "State Representative",
    "district": "District 66",
    "town": "",
    "state": "",
    "photo": "",
    "website": "",
    "cycle": "2026",
    "lat": 36.5092119,
    "lng": -86.8849984
  }
]
